{
"intl_delivery" : [
{
    "order_number": "A1AFCB5013D741",
    "address": "4660 Chardonnay Ct, Dunwoody, GA 30338, USA",
    "name": "Anthony Miller",
    "lat": 33.9333097,
    "lng": -84.33142769999999
},
{
    "order_number": "5A1F698F365A49",
    "address": "1877 Vanderlyn Dr, Dunwoody, GA 30338, USA",
    "name": "Anthony Thompson",
    "lat": 33.946391,
    "lng": -84.311933
},
{
    "order_number": "F1D30BD1E4B346",
    "address": "5735 Roswell Rd NE, Atlanta, GA 30342, USA",
    "name": "Madison Smith",
    "lat": 33.9108516,
    "lng": -84.3749665
},
{
    "order_number": "607090879C114B",
    "address": "1501 Lake Hearn Dr NE, Atlanta, GA 30319, USA",
    "name": "Ava Wilson",
    "lat": 33.9161698,
    "lng": -84.3392629
},
{
    "order_number": "5B4DEE70DB2A48",
    "address": "246 Perimeter Center Pkwy NE, Atlanta, GA 30346, USA",
    "name": "Abigail Garcia",
    "lat": 33.91730769999999,
    "lng": -84.3447974
},
{
    "order_number": "55060A05112E4F",
    "address": "115 Silverwood Rd NE, Sandy Springs, GA 30342, USA",
    "name": "Ethan Garcia",
    "lat": 33.895806,
    "lng": -84.3837135
},
{
    "order_number": "3C65806DBF8043",
    "address": "1271 Redfield Ridge, Dunwoody, GA 30338, USA",
    "name": "Ella Garcia",
    "lat": 33.9543491,
    "lng": -84.347369
},
{
    "order_number": "3355DA938EBB41",
    "address": "4 Greenland Rd NE, Sandy Springs, GA 30342, USA",
    "name": "Grace Clark",
    "lat": 33.9034136,
    "lng": -84.3740025
},
{
    "order_number": "AB124B595CEE4E",
    "address": "5241 Roberts Dr, Dunwoody, GA 30338, USA",
    "name": "Abigail Davis",
    "lat": 33.9531314,
    "lng": -84.336242
},
{
    "order_number": "FF6CF2E4EEC045",
    "address": "6863 Glenlake Pkwy NE, Sandy Springs, GA 30328, USA",
    "name": "Emma Johnson",
    "lat": 33.9425217,
    "lng": -84.3650198
},
{
    "order_number": "8C4996DAD1004D",
    "address": "5170 S Trimble Rd, Atlanta, GA 30342, USA",
    "name": "Grace Jackson",
    "lat": 33.8960946,
    "lng": -84.3574826
},
{
    "order_number": "0D89F2F5093046",
    "address": "1722 Remington Rd, Chamblee, GA 30341, USA",
    "name": "Joshua Taylor",
    "lat": 33.9074914,
    "lng": -84.3178605
},
{
    "order_number": "67967B132A884E",
    "address": "3598 Cold Spring Ln, Chamblee, GA 30341, USA",
    "name": "Daniel Davis",
    "lat": 33.8968567,
    "lng": -84.31828589999999
},
{
    "order_number": "A2A77CDE9E1245",
    "address": "3576 Keswick Dr, Chamblee, GA 30341, USA",
    "name": "Ava Garcia",
    "lat": 33.89576479999999,
    "lng": -84.3134766
},
{
    "order_number": "D2709135A3724A",
    "address": "1010 Byrnwyck Rd NE, Brookhaven, GA 30319, USA",
    "name": "Olivia Martinez",
    "lat": 33.908288,
    "lng": -84.34270599999999
},
{
    "order_number": "2B3BF72D81644A",
    "address": "901 Abernathy Rd NE, Sandy Springs, GA 30328, USA",
    "name": "Ella Martinez",
    "lat": 33.9329471,
    "lng": -84.3610234
},
{
    "order_number": "9D6725A9097A47",
    "address": "990 Clementstone Dr NE, Atlanta, GA 30342, USA",
    "name": "Ella Garcia",
    "lat": 33.902096,
    "lng": -84.3553462
},
{
    "order_number": "13873D9376A646",
    "address": "2189 Seaman Cir, Chamblee, GA 30341, USA",
    "name": "Ryan Miller",
    "lat": 33.9135185,
    "lng": -84.30351379999999
},
{
    "order_number": "FC9514CBA50646",
    "address": "6631 Roswell Rd NE, Sandy Springs, GA 30328, USA",
    "name": "Madison Miller",
    "lat": 33.9359364,
    "lng": -84.3767166
},
{
    "order_number": "EE7225C14B0341",
    "address": "185 Devonwood Dr, Atlanta, GA 30328, USA",
    "name": "Sophia Garcia",
    "lat": 33.9475061,
    "lng": -84.3817411
},
{
    "order_number": "AD6B27AD3ECB49",
    "address": "5730 Glenridge Dr, Atlanta, GA 30328, USA",
    "name": "Matthew White",
    "lat": 33.9113064,
    "lng": -84.3626663
},
{
    "order_number": "2C575CFBFE6840",
    "address": "1210 Dunwoody Gables Dr, Dunwoody, GA 30338, USA",
    "name": "Ryan Thompson",
    "lat": 33.9338033,
    "lng": -84.34496899999999
},
{
    "order_number": "7FF5EAAABE504C",
    "address": "1001 Summit Blvd NE, Atlanta, GA 30319, USA",
    "name": "Michael Jones",
    "lat": 33.9153753,
    "lng": -84.341475
},
{
    "order_number": "E84EE2A5759541",
    "address": "1208 Hammond Dr, Dunwoody, GA 30346, USA",
    "name": "Chloe Hernandez",
    "lat": 33.9216197,
    "lng": -84.34390859999999
},
{
    "order_number": "5CE608F40BC54F",
    "address": "235 Trimble Chase Ct, Sandy Springs, GA 30342, USA",
    "name": "Madison Garcia",
    "lat": 33.8974228,
    "lng": -84.355784
},
{
    "order_number": "2CEA6EE1167E4A",
    "address": "5825 Roswell Rd NE, Sandy Springs, GA 30328, USA",
    "name": "Ella Williams",
    "lat": 33.9143451,
    "lng": -84.37880539999999
},
{
    "order_number": "4EE3A765A3274A",
    "address": "5584 Benton Woods Dr NE, Atlanta, GA 30342, USA",
    "name": "Andrew Martinez",
    "lat": 33.9079297,
    "lng": -84.3759188
},
{
    "order_number": "B908DE51200B42",
    "address": "1889 Winchester Trail, Chamblee, GA 30341, USA",
    "name": "Lily Martinez",
    "lat": 33.908607,
    "lng": -84.310946
},
{
    "order_number": "327BD367CECE46",
    "address": "1445 Mt Vernon Rd, Dunwoody, GA 30338, USA",
    "name": "Isabella White",
    "lat": 33.9418241,
    "lng": -84.33952269999999
},
{
    "order_number": "2115285038474C",
    "address": "300 Carpenter Dr NE, Atlanta, GA 30328, USA",
    "name": "Lily Rodriguez",
    "lat": 33.9253391,
    "lng": -84.3765201
},
{
    "order_number": "73890F61C99249",
    "address": "7180 Hunters Branch Dr NE, Sandy Springs, GA 30328, USA",
    "name": "Andrew Martinez",
    "lat": 33.9506331,
    "lng": -84.35149679999999
},
{
    "order_number": "B3472EA76E5E45",
    "address": "1010 Byrnwyck Rd NE, Brookhaven, GA 30319, USA",
    "name": "Ryan Rodriguez",
    "lat": 33.908288,
    "lng": -84.34270599999999
},
{
    "order_number": "AB9538011CAA47",
    "address": "302 Lake Ridge Ln Unit#3, Dunwoody, GA 30338, USA",
    "name": "Michael Smith",
    "lat": 33.9269748,
    "lng": -84.3102475
},
{
    "order_number": "D6BF23C27F0F42",
    "address": "4400 Ashford Dunwoody Rd NE Unit 2585, Dunwoody, GA 30346, USA",
    "name": "Ella Hernandez",
    "lat": 33.9235924,
    "lng": -84.3407299
},
{
    "order_number": "8B1D73E1966C45",
    "address": "55 Glenlake Pkwy NE, Sandy Springs, GA 30328, USA",
    "name": "Michael Clark",
    "lat": 33.9433348,
    "lng": -84.360208
},
{
    "order_number": "B29E094347854D",
    "address": "1488 Runnymeade Rd NE, Atlanta, GA 30319, USA",
    "name": "Chloe Clark",
    "lat": 33.9007951,
    "lng": -84.3279561
},
{
    "order_number": "909FE39049BE45",
    "address": "3778 Ensign Dr, Chamblee, GA 30341, USA",
    "name": "Abigail Wilson",
    "lat": 33.9029961,
    "lng": -84.3042128
},
{
    "order_number": "6A76945ECB844B",
    "address": "125 Northwood Dr, Sandy Springs, GA 30342, USA",
    "name": "Isabella Taylor",
    "lat": 33.9086957,
    "lng": -84.3816643
},
{
    "order_number": "9E8FB492F93642",
    "address": "5994 Peachtree Dunwoody Rd, Sandy Springs, GA 30328, USA",
    "name": "Emma Garcia",
    "lat": 33.9185834,
    "lng": -84.35135439999999
},
{
    "order_number": "EC2D1B8107964C",
    "address": "1684 Beverly Woods Ct, Chamblee, GA 30341, USA",
    "name": "Abigail Harris",
    "lat": 33.9140047,
    "lng": -84.3190788
},
{
    "order_number": "2C8E1FC350694F",
    "address": "5750 Roswell Rd, Sandy Springs, GA 30342, USA",
    "name": "Grace Thompson",
    "lat": 33.9113303,
    "lng": -84.38032460000001
},
{
    "order_number": "762F5FEC772744",
    "address": "5233 Manhasset Cove, Dunwoody, GA 30338, USA",
    "name": "Daniel Moore",
    "lat": 33.9532648,
    "lng": -84.3248296
},
{
    "order_number": "037C0BE5E1A84A",
    "address": "2002 Summit Blvd NE, Atlanta, GA 30319, USA",
    "name": "Madison Anderson",
    "lat": 33.9142799,
    "lng": -84.3416128
},
{
    "order_number": "4D1B549013FC42",
    "address": "912 Hammond Dr, Atlanta, GA 30328, USA",
    "name": "Tyler Harris",
    "lat": 33.919519,
    "lng": -84.357028
},
{
    "order_number": "ECD92FBF17D64C",
    "address": "MT Vernon Hwy NE @ Barfield Rd NE, Sandy Springs, GA 30328, USA",
    "name": "Abigail Clark",
    "lat": 33.9292427,
    "lng": -84.3598537
},
{
    "order_number": "3AD0836957E142",
    "address": "6441 Wright Rd NE, Atlanta, GA 30328, USA",
    "name": "David Rodriguez",
    "lat": 33.9308038,
    "lng": -84.3854266
},
{
    "order_number": "B1E777998BD944",
    "address": "1828 D'Youville Ln, Chamblee, GA 30341, USA",
    "name": "Nathan Brown",
    "lat": 33.9095143,
    "lng": -84.3158977
},
{
    "order_number": "C4D9F5B715544D",
    "address": "98 Allen Rd NE, Sandy Springs, GA 30328, USA",
    "name": "Ryan Martinez",
    "lat": 33.9136432,
    "lng": -84.3835544
},
{
    "order_number": "60F2AE3697E84B",
    "address": "3820 Captain Dr, Chamblee, GA 30341, USA",
    "name": "Tyler Miller",
    "lat": 33.904322,
    "lng": -84.3016597
},
{
    "order_number": "D52AF6DEE30648",
    "address": "6621 Artisan Aly, Sandy Springs, GA 30328, USA",
    "name": "Emma Moore",
    "lat": 33.9369235,
    "lng": -84.36239379999999
},
{
    "order_number": "77D87B9DE2F543",
    "address": "3790 W Nancy Creek Ct, Atlanta, GA 30319, USA",
    "name": "Daniel Garcia",
    "lat": 33.9037094,
    "lng": -84.3396114
},
{
    "order_number": "77AE3ED5343E48",
    "address": "4199 Longview Dr, Chamblee, GA 30341, USA",
    "name": "Joshua Williams",
    "lat": 33.9159523,
    "lng": -84.3032061
},
{
    "order_number": "60CDC91BD5A64C",
    "address": "5280 Wyntercreek Ct, Dunwoody, GA 30338, USA",
    "name": "Sophia Martinez",
    "lat": 33.9550438,
    "lng": -84.3297482
},
{
    "order_number": "7537D966F64D44",
    "address": "305 Hunters Trace Cir NE, Atlanta, GA 30328, USA",
    "name": "Anthony Wilson",
    "lat": 33.9444155,
    "lng": -84.3491438
},
{
    "order_number": "C18A4E94C84B40",
    "address": "1887 Olde Village Run, Dunwoody, GA 30338, USA",
    "name": "Sophia Davis",
    "lat": 33.9401156,
    "lng": -84.3128741
},
{
    "order_number": "504DB84F829746",
    "address": "58 Perimeter Summit Blvd NE, Atlanta, GA 30346, USA",
    "name": "Madison Johnson",
    "lat": 33.9211245,
    "lng": -84.3333845
},
{
    "order_number": "3683AD0F5FE54A",
    "address": "5240 S Trimble Rd, Sandy Springs, GA 30342, USA",
    "name": "Michael Taylor",
    "lat": 33.8978931,
    "lng": -84.358938
},
{
    "order_number": "FBA1A09ADDEA49",
    "address": "1931 Peeler Rd, Atlanta, GA 30338, USA",
    "name": "Anthony Brown",
    "lat": 33.9319448,
    "lng": -84.3088798
},
{
    "order_number": "58AEAA4178D84C",
    "address": "5265 S Trimble Rd, Atlanta, GA 30342, USA",
    "name": "Ella Davis",
    "lat": 33.8996639,
    "lng": -84.35807229999999
},
{
    "order_number": "507D9220FCE44A",
    "address": "600 Embassy Row NE, Atlanta, GA 30328, USA",
    "name": "Emily Martin",
    "lat": 33.9373588,
    "lng": -84.3549443
},
{
    "order_number": "439C2B0F429A4C",
    "address": "1160 Dog Park, 1123 Hammond Dr, Dunwoody, GA 30346, USA",
    "name": "Anthony Clark",
    "lat": 33.9195836,
    "lng": -84.34800220000001
},
{
    "order_number": "0EF265BE815841",
    "address": "978 Wescott Ln NE, Atlanta, GA 30319, USA",
    "name": "Michael Johnson",
    "lat": 33.9011204,
    "lng": -84.3489541
},
{
    "order_number": "4748757B9E134D",
    "address": "1155 Mount Vernon Hwy NE, Sandy Springs, GA 30328, USA",
    "name": "Emma Clark",
    "lat": 33.9330831,
    "lng": -84.34860049999999
},
{
    "order_number": "B1FB3C3B601D4E",
    "address": "WM83+6M North Brookhaven, Brookhaven, GA, USA",
    "name": "Ava Martinez",
    "lat": 33.9155625,
    "lng": -84.3458125
},
{
    "order_number": "66095CE14A5C47",
    "address": "185 Fieldsborn Ct NE, Atlanta, GA 30328, USA",
    "name": "Emily Anderson",
    "lat": 33.95801,
    "lng": -84.358955
},
{
    "order_number": "CCA986961CC044",
    "address": "5899 Roswell Rd NE, Sandy Springs, GA 30328, USA",
    "name": "Abigail Davis",
    "lat": 33.9156384,
    "lng": -84.37865389999999
},
{
    "order_number": "FEE22503C3074A",
    "address": "1195 Dunwoody Ln NE, Atlanta, GA 30319, USA",
    "name": "Lily Moore",
    "lat": 33.9104044,
    "lng": -84.337137
},
{
    "order_number": "6FA5F7E6D4C84F",
    "address": "4920 Vermack Rd, Dunwoody, GA 30338, USA",
    "name": "Emily Robinson",
    "lat": 33.9420315,
    "lng": -84.3162986
},
{
    "order_number": "158C153B55584E",
    "address": "4722 Ridgeview Rd, Dunwoody, GA 30338, USA",
    "name": "Emily Miller",
    "lat": 33.9367489,
    "lng": -84.34537530000001
},
{
    "order_number": "7E48FB7FBF174E",
    "address": "4682 Devonshire Rd, Dunwoody, GA 30338, USA",
    "name": "Matthew Jones",
    "lat": 33.933975,
    "lng": -84.32860079999999
},
{
    "order_number": "86C57A3E241E40",
    "address": "217 Brandon Pl NE, Sandy Springs, GA 30328, USA",
    "name": "Sophia Martinez",
    "lat": 33.9535498,
    "lng": -84.38297659999999
},
{
    "order_number": "AE9939D75E344E",
    "address": "10 River Ct Pkwy, Sandy Springs, GA 30328, USA",
    "name": "Emily Clark",
    "lat": 33.9510031,
    "lng": -84.3860267
},
{
    "order_number": "7B8174FA6EBF47",
    "address": "WJ5V+M5 Sandy Springs, GA, USA",
    "name": "Ethan Miller",
    "lat": 33.9091875,
    "lng": -84.3570625
},
{
    "order_number": "7F88B4C9952E4B",
    "address": "D, Sandy Springs, GA 30328, USA",
    "name": "Olivia Brown",
    "lat": 33.9253024,
    "lng": -84.38574419999999
},
{
    "order_number": "4E1DBD426CC249",
    "address": "241 Perimeter Center Pkwy NE, Dunwoody, GA 30346, USA",
    "name": "Mia Harris",
    "lat": 33.9205615,
    "lng": -84.33174369999999
},
{
    "order_number": "523E6D6DB38F4F",
    "address": "1200 Mount Vernon Hwy, Atlanta, GA 30338, USA",
    "name": "Daniel Garcia",
    "lat": 33.930994,
    "lng": -84.349471
},
{
    "order_number": "DF5CA1519BAF4A",
    "address": "1100 Kingston Dr NE, Atlanta, GA 30342, USA",
    "name": "David Smith",
    "lat": 33.9004532,
    "lng": -84.3509392
},
{
    "order_number": "BF3BF0F6456844",
    "address": "5470 Glenridge Dr, Sandy Springs, GA 30342, USA",
    "name": "Ella Hernandez",
    "lat": 33.9064837,
    "lng": -84.3721532
},
{
    "order_number": "1FDE50639BF349",
    "address": "4392 Candler Lake E NE, Atlanta, GA 30319, USA",
    "name": "Chloe Miller",
    "lat": 33.9140447,
    "lng": -84.3236458
},
{
    "order_number": "59B863F372F646",
    "address": "WM73+WG Brookhaven, GA, USA",
    "name": "Olivia Harris",
    "lat": 33.9148125,
    "lng": -84.3461875
},
{
    "order_number": "43393EEBDF7A44",
    "address": "3936 Byrnwyck Pl NE, Atlanta, GA 30319, USA",
    "name": "Mia Anderson",
    "lat": 33.9063188,
    "lng": -84.3411979
},
{
    "order_number": "C969E173D57C4A",
    "address": "455 Stone Mill Trail NE, Atlanta, GA 30328, USA",
    "name": "Sophia Williams",
    "lat": 33.9449479,
    "lng": -84.384425
},
{
    "order_number": "97E0BF2D04BE44",
    "address": "5050 Shadow Glen Ct, Dunwoody, GA 30338, USA",
    "name": "Abigail White",
    "lat": 33.9455597,
    "lng": -84.3095635
},
{
    "order_number": "BC795FB8062540",
    "address": "4806 Northbrooke Cir, Atlanta, GA 30338, USA",
    "name": "Olivia Robinson",
    "lat": 33.9384317,
    "lng": -84.30885830000001
},
{
    "order_number": "708F6ABDC62642",
    "address": "260 Brook Dr NE, Sandy Springs, GA 30328, USA",
    "name": "Jacob Martinez",
    "lat": 33.9404734,
    "lng": -84.3784795
},
{
    "order_number": "2ED82090544541",
    "address": "1668 Old Spring House Ln, Dunwoody, GA 30338, USA",
    "name": "Mia Smith",
    "lat": 33.9239242,
    "lng": -84.32007999999999
},
{
    "order_number": "933C6500B67C46",
    "address": "9303 Peachford Cir, Dunwoody, GA 30338, USA",
    "name": "Ella Brown",
    "lat": 33.9228723,
    "lng": -84.3040929
},
{
    "order_number": "28022A3A96D145",
    "address": "90 Goldrush Cir NE, Atlanta, GA 30328, USA",
    "name": "Andrew Hernandez",
    "lat": 33.9162413,
    "lng": -84.3628492
},
{
    "order_number": "24904F8F8A0244",
    "address": "6321 Glenridge Dr, Sandy Springs, GA 30328, USA",
    "name": "Lily Johnson",
    "lat": 33.927879,
    "lng": -84.3657549
},
{
    "order_number": "9BE6191F42C444",
    "address": "5322 Forest Springs Dr, Dunwoody, GA 30338, USA",
    "name": "Ava Garcia",
    "lat": 33.956669,
    "lng": -84.315675
},
{
    "order_number": "397128D9DBCE4C",
    "address": "3797 Granger Dr, Chamblee, GA 30341, USA",
    "name": "Nathan Robinson",
    "lat": 33.9034824,
    "lng": -84.31705099999999
},
{
    "order_number": "67F5FF9555CC4F",
    "address": "3941 Bonnington Ct, Atlanta, GA 30341, USA",
    "name": "Tyler Thompson",
    "lat": 33.9094662,
    "lng": -84.3174263
},
{
    "order_number": "1A4DD8E148234D",
    "address": "1105 Mount Vernon Hwy NE, Sandy Springs, GA 30328, USA",
    "name": "Jacob Jackson",
    "lat": 33.9305769,
    "lng": -84.35477999999999
},
{
    "order_number": "5BE8931CC1BF42",
    "address": "1482 Meadowcreek Ct, Atlanta, GA 30338, USA",
    "name": "Grace Wilson",
    "lat": 33.956585,
    "lng": -84.3268614
},
{
    "order_number": "0AF6E02E575A45",
    "address": "4110 Shawnee Ln NE, Atlanta, GA 30319, USA",
    "name": "David Smith",
    "lat": 33.9136415,
    "lng": -84.3297571
},
{
    "order_number": "6F0BA95F29C64D",
    "address": "4867 Vermack Rd, Dunwoody, GA 30338, USA",
    "name": "Michael Martin",
    "lat": 33.9404367,
    "lng": -84.31509609999999
},
{
    "order_number": "143AE907E41E42",
    "address": "1226 Dunwoody Ln NE, Atlanta, GA 30319, USA",
    "name": "Ethan Jackson",
    "lat": 33.9114745,
    "lng": -84.3379029
},
{
    "order_number": "0C2CB235E64B44",
    "address": "4301 Bethesda Trail, Dunwoody, GA 30338, USA",
    "name": "Emily Taylor",
    "lat": 33.9213841,
    "lng": -84.3198476
},
{
    "order_number": "C7DA4CBF22B24C",
    "address": "4444 N Shallowford Rd, Dunwoody, GA 30338, USA",
    "name": "Sophia Williams",
    "lat": 33.9224641,
    "lng": -84.3067822
},
{
    "order_number": "949AFB68C4614B",
    "address": "725 Glenridge Close Dr NE, Atlanta, GA 30328, USA",
    "name": "Tyler Williams",
    "lat": 33.9301407,
    "lng": -84.3632824
}
],
"status" : "OK"
}
