{
  "intl_delivery": [
    {
      "order_number": "7DD14A6117C649",
      "address": "201-299 E 4th St, Austin, TX 78701, USA",
      "name": "Sophia Hernandez",
      "lat": 30.2656186,
      "lng": -97.742098
    },
    {
      "order_number": "B34E085A18354D",
      "address": "500 1/2 W 10th St, Austin, TX 78701, USA",
      "name": "Madison Thomas",
      "lat": 30.2733661,
      "lng": -97.7458846
    },
    {
      "order_number": "10464227665A4A",
      "address": "1525 Barton Springs Rd, Austin, TX 78704, USA",
      "name": "Daniel Martin",
      "lat": 30.2616459,
      "lng": -97.76116669999999
    },
    {
      "order_number": "6B8ADE040CBC4E",
      "address": "1102 S Congress Ave, Austin, TX 78704, USA",
      "name": "Anthony Smith",
      "lat": 30.2522516,
      "lng": -97.75116059999999
    },
    {
      "order_number": "03383A6568644C",
      "address": "1503 Newning Ave, Austin, TX 78704, USA",
      "name": "Olivia Wilson",
      "lat": 30.2473498,
      "lng": -97.74552899999999
    },
    {
      "order_number": "1AF89EBDFE1D4B",
      "address": "601 Dawson Rd, Austin, TX 78704, USA",
      "name": "Abigail Taylor",
      "lat": 30.2588193,
      "lng": -97.7559945
    },
    {
      "order_number": "528E0B0953D948",
      "address": "908 W Gibson St, Austin, TX 78704, USA",
      "name": "Nathan Jackson",
      "lat": 30.2535182,
      "lng": -97.7579253
    },
    {
      "order_number": "8B4890B4DE2548",
      "address": "602 West Ave, Austin, TX 78701, USA",
      "name": "Olivia Rodriguez",
      "lat": 30.270745,
      "lng": -97.750833
    },
    {
      "order_number": "788F7BFD6F8749",
      "address": "201 E Monroe St, Austin, TX 78704, USA",
      "name": "Jacob Brown",
      "lat": 30.2474556,
      "lng": -97.74900989999999
    },
    {
      "order_number": "8158A52A489E4C",
      "address": "313 E 2nd St, Austin, TX 78701, USA",
      "name": "Michael Miller",
      "lat": 30.2633579,
      "lng": -97.7411504
    },
    {
      "order_number": "95DCC2A11C9840",
      "address": "539w W 9th St, Austin, TX 78701, USA",
      "name": "Emily Williams",
      "lat": 30.2720181,
      "lng": -97.74698889999999
    },
    {
      "order_number": "68D6460C612646",
      "address": "200 Red River St, Austin, TX 78701, USA",
      "name": "Ava Thomas",
      "lat": 30.2630412,
      "lng": -97.73867070000001
    },
    {
      "order_number": "F6E99092E05440",
      "address": "212 Walter Seaholm Dr, Austin, TX 78701, USA",
      "name": "Abigail Thomas",
      "lat": 30.268062,
      "lng": -97.75325699999999
    },
    {
      "order_number": "61C4861D666347",
      "address": "1512 Newning Ave, Austin, TX 78704, USA",
      "name": "Sophia Jackson",
      "lat": 30.2471285,
      "lng": -97.74667629999999
    },
    {
      "order_number": "6EB68FF1B89F46",
      "address": "302 1/2 Guadalupe St, Austin, TX 78701, USA",
      "name": "Matthew Martinez",
      "lat": 30.2664067,
      "lng": -97.7473705
    },
    {
      "order_number": "A43FC5DA0C0842",
      "address": "802 Rio Grande St, Austin, TX 78701, USA",
      "name": "Olivia Taylor",
      "lat": 30.2722635,
      "lng": -97.74890479999999
    },
    {
      "order_number": "56E0CD8893D34E",
      "address": "806 West Ave, Austin, TX 78701, USA",
      "name": "Michael Thompson",
      "lat": 30.2727848,
      "lng": -97.74999989999999
    },
    {
      "order_number": "5E9042EF41C748",
      "address": "Congress Avenue Bridge, S Congress Ave, Austin, TX 78701, USA",
      "name": "Lily Williams",
      "lat": 30.2621438,
      "lng": -97.7450564
    },
    {
      "order_number": "3861379EDE2F46",
      "address": "410 W 5th St, Austin, TX 78701, USA",
      "name": "Ryan Miller",
      "lat": 30.268391,
      "lng": -97.7468217
    },
    {
      "order_number": "316DA55A30CA48",
      "address": "Waller Beach at Town Lake Metropolitan Park, 30 East Ave, Austin, TX 78701, USA",
      "name": "Nathan Thompson",
      "lat": 30.2603098,
      "lng": -97.7414483
    },
    {
      "order_number": "48014C8D9F7349",
      "address": "205 W 8th St, Austin, TX 78701, USA",
      "name": "Madison Harris",
      "lat": 30.2702664,
      "lng": -97.7438035
    },
    {
      "order_number": "F7F9AE882FB044",
      "address": "603 Jessie St, Austin, TX 78704, USA",
      "name": "Michael Hernandez",
      "lat": 30.2597938,
      "lng": -97.7607432
    },
    {
      "order_number": "469F38D1E2D545",
      "address": "800 1/2 W Riverside Dr, Austin, TX 78704, USA",
      "name": "Emily Harris",
      "lat": 30.26308959999999,
      "lng": -97.7506635
    },
    {
      "order_number": "825B0119AB9842",
      "address": "720 Brazos St, Austin, TX 78701, USA",
      "name": "Michael Smith",
      "lat": 30.2694335,
      "lng": -97.74100469999999
    },
    {
      "order_number": "8F11108AAD8B4C",
      "address": "603 1/2 Davis St, Austin, TX 78701, USA",
      "name": "Lily Davis",
      "lat": 30.2596551,
      "lng": -97.7395044
    },
    {
      "order_number": "FD5C8EA27E1543",
      "address": "1101 1/2 Alameda Dr, Austin, TX 78704, USA",
      "name": "Mia Martin",
      "lat": 30.2506143,
      "lng": -97.74052239999999
    },
    {
      "order_number": "BC26D401B41D4E",
      "address": "401 1/2 W Cesar Chavez St, Austin, TX 78701, USA",
      "name": "Anthony Martinez",
      "lat": 30.2642068,
      "lng": -97.748127
    },
    {
      "order_number": "4F3FF22C9B0A41",
      "address": "707 Blanco St, Austin, TX 78703, USA",
      "name": "Mia Martinez",
      "lat": 30.274289,
      "lng": -97.7559014
    },
    {
      "order_number": "D87FFF4C355C4F",
      "address": "1000 Barton Springs Rd, Austin, TX 78704, USA",
      "name": "Abigail Martinez",
      "lat": 30.2607406,
      "lng": -97.7531808
    },
    {
      "order_number": "E19DD52ADC4F4A",
      "address": "807 1/2 W Riverside Dr, Austin, TX 78704, USA",
      "name": "Nathan Moore",
      "lat": 30.2621658,
      "lng": -97.75192559999999
    },
    {
      "order_number": "9FF4351731AD4A",
      "address": "615 1/2 W 2nd St, Austin, TX 78701, USA",
      "name": "Andrew Brown",
      "lat": 30.2660828,
      "lng": -97.7505731
    },
    {
      "order_number": "311FCA130E294E",
      "address": "311 W 6th St, Austin, TX 78701, USA",
      "name": "Daniel White",
      "lat": 30.2686332,
      "lng": -97.7458522
    },
    {
      "order_number": "054F97F600E546",
      "address": "208 Barton Springs Rd, Austin, TX 78704, USA",
      "name": "Ethan Martinez",
      "lat": 30.2609161,
      "lng": -97.7474421
    },
    {
      "order_number": "90A2A2FA252B43",
      "address": "608 W Monroe St, Austin, TX 78704, USA",
      "name": "Anthony Rodriguez",
      "lat": 30.2498471,
      "lng": -97.7556156
    },
    {
      "order_number": "CA63791B423B4E",
      "address": "1012 1/2 Jewell St, Austin, TX 78704, USA",
      "name": "Sophia Miller",
      "lat": 30.2525739,
      "lng": -97.7603931
    },
    {
      "order_number": "C9A5BD0B63D549",
      "address": "823 Congress Ave. #703, Austin, TX 78701, USA",
      "name": "Emma Martin",
      "lat": 30.270362,
      "lng": -97.741458
    },
    {
      "order_number": "00E212BF3D0C48",
      "address": "1041 1/2 W Riverside Dr, Austin, TX 78704, USA",
      "name": "Nathan Rodriguez",
      "lat": 30.2633221,
      "lng": -97.7545171
    },
    {
      "order_number": "DA89844CBD7440",
      "address": "1310 S 1st St, Austin, TX 78704, USA",
      "name": "Ella Jackson",
      "lat": 30.25104219999999,
      "lng": -97.7547736
    },
    {
      "order_number": "88924396713348",
      "address": "119 E 6th St, Austin, TX 78701, USA",
      "name": "Jacob Martin",
      "lat": 30.2675827,
      "lng": -97.7417565
    },
    {
      "order_number": "A1396E51BD6149",
      "address": "522 Sunny Ln, Austin, TX 78704, USA",
      "name": "Abigail Williams",
      "lat": 30.2516047,
      "lng": -97.74149349999999
    },
    {
      "order_number": "6F4CFD4E7AAC45",
      "address": "813 S Lamar Blvd, Austin, TX 78704, USA",
      "name": "Anthony Smith",
      "lat": 30.2568103,
      "lng": -97.7600794
    },
    {
      "order_number": "9B93D0C4F4B944",
      "address": "1151 Post Oak St, Austin, TX 78704, USA",
      "name": "Matthew Anderson",
      "lat": 30.257055,
      "lng": -97.7582642
    },
    {
      "order_number": "8E5CF6E6C9C54B",
      "address": "1611 Bouldin Ave, Austin, TX 78704, USA",
      "name": "Abigail Thomas",
      "lat": 30.249917,
      "lng": -97.75881690000001
    },
    {
      "order_number": "3E19CECC67EC4C",
      "address": "1604 S 3rd St, Austin, TX 78704, USA",
      "name": "Chloe White",
      "lat": 30.2500042,
      "lng": -97.7583082
    },
    {
      "order_number": "F0941EE76F3845",
      "address": "1155 1/2 Barton Springs Rd, Austin, TX 78704, USA",
      "name": "Lily Garcia",
      "lat": 30.2603795,
      "lng": -97.7566442
    },
    {
      "order_number": "C7C542712E134C",
      "address": "1316 W 6th St, Austin, TX 78703, USA",
      "name": "Abigail Anderson",
      "lat": 30.2744587,
      "lng": -97.75963379999999
    },
    {
      "order_number": "4D7236B0290841",
      "address": "803 1/2 W 2nd St, Austin, TX 78701, USA",
      "name": "David Martinez",
      "lat": 30.2666954,
      "lng": -97.75345759999999
    },
    {
      "order_number": "E9B039FF0DC94F",
      "address": "712 E Riverside Dr, Austin, TX 78741, USA",
      "name": "Mia Thompson",
      "lat": 30.2517424,
      "lng": -97.7404947
    },
    {
      "order_number": "F1DDB77F6FEA41",
      "address": "1106 W 7th St, Austin, TX 78703, USA",
      "name": "Isabella Robinson",
      "lat": 30.2736142,
      "lng": -97.7548771
    },
    {
      "order_number": "5A2DEE31551E42",
      "address": "802 S 1st St, Austin, TX 78704, USA",
      "name": "Abigail Williams",
      "lat": 30.2555091,
      "lng": -97.75331550000001
    }
  ],
  "status": "OK"
}
