{
  "intl_delivery": [
    {
      "order_number": "CD146819E97048",
      "address": "1595 E 20th Ave, Denver, CO 80205, USA",
      "name": "Daniel Davis",
      "lat": 39.7471794,
      "lng": -104.9686294
    },
    {
      "order_number": "02F7907A10B34B",
      "address": "1900 Curtis Street, Denver, CO 80202, USA",
      "name": "Tyler Jackson",
      "lat": 39.750305,
      "lng": -104.989914
    },
    {
      "order_number": "87C7288431694B",
      "address": "2195 Blake St, Denver, CO 80205, USA",
      "name": "Chloe Robinson",
      "lat": 39.7558388,
      "lng": -104.9937383
    },
    {
      "order_number": "7419508CA81C46",
      "address": "1590 N Broadway, Denver, CO 80202, USA",
      "name": "Ethan Martinez",
      "lat": 39.7416114,
      "lng": -104.9871951
    },
    {
      "order_number": "51DF5868DBE941",
      "address": "1010 Santa Fe Dr, Denver, CO 80204, USA",
      "name": "Abigail Garcia",
      "lat": 39.7323833,
      "lng": -104.9983103
    },
    {
      "order_number": "4779D61EF4E64F",
      "address": "1657 N Clarkson St, Denver, CO 80218, USA",
      "name": "Jacob Harris",
      "lat": 39.7426692,
      "lng": -104.9779412
    },
    {
      "order_number": "3266345441574D",
      "address": "1903 Broadway, Denver, CO 80202, USA",
      "name": "Andrew Thomas",
      "lat": 39.7462231,
      "lng": -104.9876059
    },
    {
      "order_number": "98C4E995037A46",
      "address": "1515 Cleveland Pl, Denver, CO 80202, USA",
      "name": "Mia Robinson",
      "lat": 39.7414322,
      "lng": -104.9889295
    },
    {
      "order_number": "F0C6707CBFF647",
      "address": "1331 17th St Suite 550, Denver, CO 80202, USA",
      "name": "Anthony Wilson",
      "lat": 39.7507957,
      "lng": -104.9964509
    },
    {
      "order_number": "A68D5236E00F48",
      "address": "Denver, Denver, CO 80202, USA",
      "name": "Ryan Rodriguez",
      "lat": 39.7541032,
      "lng": -105.0002242
    },
    {
      "order_number": "0337D6EB7D474C",
      "address": "1855 Lincoln St, Denver, CO 80202, USA",
      "name": "Jacob Clark",
      "lat": 39.7457603,
      "lng": -104.9864392
    },
    {
      "order_number": "A81F9741CB444B",
      "address": "2460 Tremont Pl, Denver, CO 80205, USA",
      "name": "Mia Smith",
      "lat": 39.7511718,
      "lng": -104.978489
    },
    {
      "order_number": "1860100CBDDC40",
      "address": "1835 Franklin St, Denver, CO 80218, USA",
      "name": "Abigail Miller",
      "lat": 39.7454493,
      "lng": -104.9696431
    },
    {
      "order_number": "E444497FC75D46",
      "address": "1615 Race St, Denver, CO 80206, USA",
      "name": "Tyler Smith",
      "lat": 39.7420101,
      "lng": -104.9638128
    },
    {
      "order_number": "A0C79C5208D345",
      "address": "1200 19th St, Denver, CO 80202, USA",
      "name": "Ella Anderson",
      "lat": 39.7542527,
      "lng": -104.9964167
    },
    {
      "order_number": "93A3C6F849784E",
      "address": "1299 E 24th Ave, Denver, CO 80205, USA",
      "name": "Ryan Thomas",
      "lat": 39.7521143,
      "lng": -104.9723005
    },
    {
      "order_number": "22D8CAAD17B24B",
      "address": "614 27th St, Denver, CO 80205, USA",
      "name": "Daniel Garcia",
      "lat": 39.7548945,
      "lng": -104.9785405
    },
    {
      "order_number": "5AC9DCD52E224E",
      "address": "1909 E 27th Ave, Denver, CO 80205, USA",
      "name": "Emily Martinez",
      "lat": 39.7558959,
      "lng": -104.9640068
    },
    {
      "order_number": "AC486F93FD8C46",
      "address": "1004 18th St, Denver, CO 80202, USA",
      "name": "Anthony Moore",
      "lat": 39.74916400000001,
      "lng": -104.9928126
    },
    {
      "order_number": "E04939F0D7FF4E",
      "address": "2301 York St, Denver, CO 80205, USA",
      "name": "Tyler Thompson",
      "lat": 39.7510857,
      "lng": -104.9601051
    },
    {
      "order_number": "587B67616D6B46",
      "address": "1645 E 17th Ave, Denver, CO 80218, USA",
      "name": "Sophia Thompson",
      "lat": 39.7435915,
      "lng": -104.9675964
    },
    {
      "order_number": "79DAFD0380C14A",
      "address": "1621 E 18th Ave, Denver, CO 80218, USA",
      "name": "Sophia Smith",
      "lat": 39.7448927,
      "lng": -104.968195
    },
    {
      "order_number": "E77188AA5FA14D",
      "address": "2707 N Humboldt St, Denver, CO 80205, USA",
      "name": "Daniel Anderson",
      "lat": 39.7559387,
      "lng": -104.9699782
    },
    {
      "order_number": "6F05DC75E6BC43",
      "address": "2127 High St, Denver, CO 80205, USA",
      "name": "Andrew Robinson",
      "lat": 39.7487948,
      "lng": -104.9650108
    },
    {
      "order_number": "770966B3088549",
      "address": "1959 Park Ave, Denver, CO 80218, USA",
      "name": "Olivia Thompson",
      "lat": 39.7473402,
      "lng": -104.977739
    },
    {
      "order_number": "551965ECC53947",
      "address": "2640 California St, Denver, CO 80205, USA",
      "name": "Olivia Brown",
      "lat": 39.7549836,
      "lng": -104.9789787
    },
    {
      "order_number": "9AB214BB00CB49",
      "address": "1819 E 23rd Ave, Denver, CO 80205, USA",
      "name": "Andrew Moore",
      "lat": 39.7508645,
      "lng": -104.9652296
    },
    {
      "order_number": "CB030CD9B1C143",
      "address": "517 Park Ave W, Denver, CO 80205, USA",
      "name": "Sophia Hernandez",
      "lat": 39.7507504,
      "lng": -104.9822278
    },
    {
      "order_number": "CF0DEC632A6D4D",
      "address": "1990 Ogden St, Denver, CO 80218, USA",
      "name": "Olivia Thomas",
      "lat": 39.7470115,
      "lng": -104.9744486
    },
    {
      "order_number": "2939D13205A24A",
      "address": "1250 Welton St, Denver, CO 80204, USA",
      "name": "Tyler Thompson",
      "lat": 39.7407838,
      "lng": -104.9949292
    },
    {
      "order_number": "2FADA628F98541",
      "address": "2480 Arapahoe St, Denver, CO 80205, USA",
      "name": "Nathan Harris",
      "lat": 39.75561,
      "lng": -104.98515
    },
    {
      "order_number": "62600FC8417441",
      "address": "1715 Vine St, Denver, CO 80206, USA",
      "name": "Chloe Garcia",
      "lat": 39.7434829,
      "lng": -104.9625708
    },
    {
      "order_number": "81324E31541E42",
      "address": "1068 20th St, Denver, CO 80202, USA",
      "name": "Tyler Garcia",
      "lat": 39.7512289,
      "lng": -104.9906035
    },
    {
      "order_number": "FECDC812A7014E",
      "address": "2079 E 18th Ave, Denver, CO 80206, USA",
      "name": "Ryan Harris",
      "lat": 39.7448181,
      "lng": -104.9624683
    },
    {
      "order_number": "CD8E944DAEA940",
      "address": "2511 Vine St, Denver, CO 80205, USA",
      "name": "Abigail Martinez",
      "lat": 39.7535283,
      "lng": -104.9620245
    },
    {
      "order_number": "A79AC2F2531342",
      "address": "1820 Broadway, Denver, CO 80202, USA",
      "name": "Michael Thomas",
      "lat": 39.7451214,
      "lng": -104.9870291
    },
    {
      "order_number": "6B93782DFB8A47",
      "address": "1830 Franklin St #340, Denver, CO 80218, USA",
      "name": "Nathan Rodriguez",
      "lat": 39.7456892,
      "lng": -104.9678176
    },
    {
      "order_number": "B784CCE8520A4C",
      "address": "York St & 26th Ave, Denver, CO 80205, USA",
      "name": "Jacob Martin",
      "lat": 39.7544711,
      "lng": -104.9597776
    },
    {
      "order_number": "C2ADAC7BA3D34F",
      "address": "1075 Park Ave W, Denver, CO 80205, USA",
      "name": "Emma Clark",
      "lat": 39.7543972,
      "lng": -104.9867326
    },
    {
      "order_number": "CA4ADC5C08C944",
      "address": "1900 Lawrence St, Denver, CO 80202, USA",
      "name": "Andrew Martin",
      "lat": 39.751295,
      "lng": -104.992143
    },
    {
      "order_number": "99CBE3D5C2034D",
      "address": "1660 Logan St, Denver, CO 80203, USA",
      "name": "Ava Hernandez",
      "lat": 39.7428503,
      "lng": -104.9820487
    },
    {
      "order_number": "A50C71AE71DE41",
      "address": "2515 California St, Denver, CO 80205, USA",
      "name": "Ryan Garcia",
      "lat": 39.7539966,
      "lng": -104.9812451
    },
    {
      "order_number": "2ADD0668E3264D",
      "address": "2514 Champa St, Denver, CO 80205, USA",
      "name": "Mia Anderson",
      "lat": 39.7549842,
      "lng": -104.9824682
    },
    {
      "order_number": "8789FD2EADF748",
      "address": "2101 Market St, Denver, CO 80205, USA",
      "name": "Grace Miller",
      "lat": 39.75496,
      "lng": -104.9922588
    },
    {
      "order_number": "EBF92DF3457344",
      "address": "2015 Glenarm Pl, Denver, CO 80205, USA",
      "name": "Anthony Taylor",
      "lat": 39.7480801,
      "lng": -104.9854921
    },
    {
      "order_number": "044669AA50F040",
      "address": "1500 E 22nd Ave, Denver, CO 80205, USA",
      "name": "Emily Martinez",
      "lat": 39.7492109,
      "lng": -104.9692828
    },
    {
      "order_number": "27013A50AC6540",
      "address": "2401 Stout St, Denver, CO 80205, USA",
      "name": "Michael Thomas",
      "lat": 39.7536022,
      "lng": -104.9834038
    },
    {
      "order_number": "86543D666BBA42",
      "address": "2155 N Gaylord St, Denver, CO 80205, USA",
      "name": "Emily Jackson",
      "lat": 39.7490731,
      "lng": -104.9612495
    },
    {
      "order_number": "080DED6779054A",
      "address": "1651 Speer Blvd, Denver, CO 80204, USA",
      "name": "Olivia Williams",
      "lat": 39.7446263,
      "lng": -105.0020989
    },
    {
      "order_number": "C8D530CEAC7343",
      "address": "2533 Emerson St, Denver, CO 80205, USA",
      "name": "Andrew Taylor",
      "lat": 39.753924,
      "lng": -104.9760836
    },
    {
      "order_number": "440F391DF36F4E",
      "address": "1331 17th St Suite 550, Denver, CO 80202, USA",
      "name": "Jacob Williams",
      "lat": 39.7507957,
      "lng": -104.9964509
    },
    {
      "order_number": "F2369C18CD4A4E",
      "address": "1851 E 17th Ave, Denver, CO 80218, USA",
      "name": "Lily Jones",
      "lat": 39.7433321,
      "lng": -104.9653259
    },
    {
      "order_number": "028946667E314B",
      "address": "Downing St & 20th Ave, Denver, CO 80218, USA",
      "name": "Grace Thompson",
      "lat": 39.7469636,
      "lng": -104.9733502
    },
    {
      "order_number": "1ACD326E65B64A",
      "address": "2250 Champa St, Denver, CO 80205, USA",
      "name": "Chloe Wilson",
      "lat": 39.752485,
      "lng": -104.985732
    },
    {
      "order_number": "F08A6ED3F51B4B",
      "address": "415 Park Ave W, Denver, CO 80205, USA",
      "name": "Nathan Clark",
      "lat": 39.7499605,
      "lng": -104.9812293
    },
    {
      "order_number": "73D13A08C11C44",
      "address": "2800 Glenarm Pl, Denver, CO 80205, USA",
      "name": "Jacob Miller",
      "lat": 39.7552226,
      "lng": -104.9752436
    },
    {
      "order_number": "80760A8AD08D47",
      "address": "2218 N Clarkson St, Denver, CO 80205, USA",
      "name": "Joshua Miller",
      "lat": 39.7499049,
      "lng": -104.976685
    },
    {
      "order_number": "40B1149B105948",
      "address": "2300 Walnut St, Denver, CO 80205, USA",
      "name": "Olivia Williams",
      "lat": 39.7563572,
      "lng": -104.9890866
    },
    {
      "order_number": "ABE52F13B89745",
      "address": "2550 California St, Denver, CO 80205, USA",
      "name": "Isabella Miller",
      "lat": 39.7542445,
      "lng": -104.9801566
    },
    {
      "order_number": "C4F4221D359E4F",
      "address": "1650 Emerson St, Denver, CO 80218, USA",
      "name": "Grace Hernandez",
      "lat": 39.7426244,
      "lng": -104.9758012
    },
    {
      "order_number": "92C19495755646",
      "address": "2480 N Clarkson St, Denver, CO 80205, USA",
      "name": "Grace Davis",
      "lat": 39.75308039999999,
      "lng": -104.9767799
    },
    {
      "order_number": "C02DEB480C7647",
      "address": "1525 Market St, Denver, CO 80202, USA",
      "name": "Isabella Smith",
      "lat": 39.749542,
      "lng": -104.999256
    },
    {
      "order_number": "9B4ABB0911E54F",
      "address": "2442 Lafayette St, Denver, CO 80205, USA",
      "name": "Ethan Johnson",
      "lat": 39.7528781,
      "lng": -104.9706491
    },
    {
      "order_number": "8851D655D33443",
      "address": "1350 Lawrence St, Denver, CO 80204, USA",
      "name": "Mia Jackson",
      "lat": 39.7458651,
      "lng": -104.9996923
    },
    {
      "order_number": "6287E26A7A6247",
      "address": "1719 E 19th Ave # C6, Denver, CO 80218, USA",
      "name": "Tyler Harris",
      "lat": 39.7462251,
      "lng": -104.9668505
    },
    {
      "order_number": "0493EDADDC2D4E",
      "address": "1600 Broadway #2500, Denver, CO 80202, USA",
      "name": "Nathan Jones",
      "lat": 39.742223,
      "lng": -104.986987
    },
    {
      "order_number": "E04A061226094D",
      "address": "2301 N Williams St, Denver, CO 80205, USA",
      "name": "Sophia Taylor",
      "lat": 39.750893,
      "lng": -104.966202
    },
    {
      "order_number": "FBB1E597B1EF4C",
      "address": "21st St & Champa St, Denver, CO 80202, USA",
      "name": "Jacob Miller",
      "lat": 39.7512012,
      "lng": -104.9879053
    },
    {
      "order_number": "62543356D65B4B",
      "address": "2121 Tremont Pl, Denver, CO 80205, USA",
      "name": "Matthew Brown",
      "lat": 39.7483116,
      "lng": -104.9833583
    },
    {
      "order_number": "428705EC0FD14A",
      "address": "1701 Race St, Denver, CO 80206, USA",
      "name": "Michael Clark",
      "lat": 39.7434078,
      "lng": -104.9637473
    },
    {
      "order_number": "DBA45001D4F44B",
      "address": "621 17th St UNIT 2400, Denver, CO 80202, USA",
      "name": "Mia Williams",
      "lat": 39.7464302,
      "lng": -104.9897256
    },
    {
      "order_number": "495142B6FEF445",
      "address": "1836 Curtis Street, Denver, CO 80257, USA",
      "name": "Nathan Johnson",
      "lat": 39.7491874,
      "lng": -104.9920163
    },
    {
      "order_number": "402F37F60E1248",
      "address": "1152 E 18th Ave, Denver, CO 80218, USA",
      "name": "Tyler Martinez",
      "lat": 39.7447233,
      "lng": -104.9726913
    },
    {
      "order_number": "E45DF108E68C48",
      "address": "1461 Lawrence St, Denver, CO 80202, USA",
      "name": "Nathan Harris",
      "lat": 39.7473033,
      "lng": -104.998371
    },
    {
      "order_number": "233F1F85DCD84C",
      "address": "1560 N Downing St, Denver, CO 80218, USA",
      "name": "Tyler Johnson",
      "lat": 39.7412851,
      "lng": -104.9729854
    },
    {
      "order_number": "48AE7307C7D342",
      "address": "1746 Pearl St, Denver, CO 80203, USA",
      "name": "Nathan Rodriguez",
      "lat": 39.744163,
      "lng": -104.9796498
    },
    {
      "order_number": "D2DBC9275AD446",
      "address": "1815 E 23rd Ave, Denver, CO 80205, USA",
      "name": "Anthony Hernandez",
      "lat": 39.7509023,
      "lng": -104.9653899
    },
    {
      "order_number": "C0365FCA273742",
      "address": "2021 Arapahoe St, Denver, CO 80205, USA",
      "name": "Madison Martinez",
      "lat": 39.75222,
      "lng": -104.990563
    },
    {
      "order_number": "27A09F87363243",
      "address": "2054 Glenarm Pl, Denver, CO 80205, USA",
      "name": "Andrew Wilson",
      "lat": 39.7481395,
      "lng": -104.9844423
    },
    {
      "order_number": "99515632E3CF41",
      "address": "18th Ave & Washington St, Denver, CO 80203, USA",
      "name": "Matthew Martin",
      "lat": 39.7448653,
      "lng": -104.9787529
    }
  ],
  "status": "OK"
}
