[
{
    "order_number": "003469E752B946",
    "address": "835 SW 52nd St, Cape Coral, FL 33914, USA",
    "name": "Tyler Johnson",
    "lat": 26.5557297,
    "lng": -81.99298569999999,
},
{
    "order_number": "53AD4F66901947",
    "address": "4321 Country Club Blvd, Cape Coral, FL 33904, USA",
    "name": "Joshua Jones",
},
{
    "order_number": "F360DC80B08D4A",
    "address": "2108 SW 32nd St, Cape Coral, FL 33914, USA",
    "name": "Sophia Garcia",
},
{
    "order_number": "C4EE95A7908D41",
    "address": "2703 SW 5th Ave, Cape Coral, FL 33914, USA",
    "name": "Jacob Davis",
},
{
    "order_number": "9270CF30EC6D4D",
    "address": "1850 SW 20th Ave, Cape Coral, FL 33991, USA",
    "name": "Nathan Garcia",
},
{
    "order_number": "C59901FC582241",
    "address": "225 Nicholas Pkwy W, Cape Coral, FL 33991, USA",
    "name": "Emma Martin",
},
{
    "order_number": "F915D52CA8E44D",
    "address": "907 SW 20th St, Cape Coral, FL 33991, USA",
    "name": "Ryan Thomas",
    "lat": 26.6150333,
    "lng": -81.9946356,
},
{
    "order_number": "DB5EFC9E0C4949",
    "address": "845 SW 15th Terrace, Cape Coral, FL 33991, USA",
    "name": "Jacob Hernandez",
},
{
    "order_number": "693C6BBBDE074A",
    "address": "2010 SW 30th Terrace, Cape Coral, FL 33914, USA",
    "name": "Ella Brown",
    "lat": 26.5957838,
    "lng": -82.01612589999999,
},
{
    "order_number": "AFDD70888EBD41",
    "address": "1307 SW 30th St, Cape Coral, FL 33914, USA",
    "name": "Jacob Martin",
    "lat": 26.5969985,
    "lng": -82.0022432,
},
{
    "order_number": "EDBC9BEE268140",
    "address": "2412 SW 40th St, Cape Coral, FL 33914, USA",
    "name": "Tyler Robinson",
},
{
    "order_number": "3F51D293ECEC4C",
    "address": "1141 SE 19th Terrace, Cape Coral, FL 33990, USA",
    "name": "Michael Taylor",
    "lat": 26.6170228,
    "lng": -81.94941779999999,
},
{
    "order_number": "F4E2A56FC2C540",
    "address": "2121 SW 36th Terrace, Cape Coral, FL 33914, USA",
    "name": "Andrew Smith",
},
{
    "order_number": "D8D1AC511CC44B",
    "address": "330 SW 21st St, Cape Coral, FL 33991, USA",
    "name": "Madison White",
    "lat": 26.6127483,
    "lng": -81.9820197,
},
{
    "order_number": "0370DA10E50745",
    "address": "3514 Chiquita Blvd S, Cape Coral, FL 33914, USA",
    "name": "Matthew Thomas",
    "lat": 26.5871609,
    "lng": -82.008208,
},
{
    "order_number": "5102772FB7F842",
    "address": "2137 SE Santa Barbara Pl, Cape Coral, FL 33990, USA",
    "name": "Joshua Martin",
    "lat": 26.6115944,
    "lng": -81.97301999999999,
},
{
    "order_number": "1BA3E471B10547",
    "address": "2422 Verdmont Ct, Cape Coral, FL 33991, USA",
    "name": "Matthew Jackson",
},
{
    "order_number": "69AD79EC4A5043",
    "address": "403 SE 32nd St, Cape Coral, FL 33904, USA",
    "name": "Ella Hernandez",
},
{
    "order_number": "65076EA11DCD45",
    "address": "210 SW 28th Terrace, Cape Coral, FL 33914, USA",
    "name": "Ella Martinez",
    "lat": 26.5990771,
    "lng": -81.9788231,
},
{
    "order_number": "0F6AF4B132A643",
    "address": "1520 SW 50th St, Cape Coral, FL 33914, USA",
    "name": "Daniel Clark",
    "lat": 26.557535,
    "lng": -82.003546,
},
{
    "order_number": "C21A4445007E4A",
    "address": "170 SE 22nd Terrace, Cape Coral, FL 33990, USA",
    "name": "Ella Smith",
    "lat": 26.6101177,
    "lng": -81.9696522,
},
{
    "order_number": "07234FD82C2B42",
    "address": "2107 SW 51st St, Cape Coral, FL 33914, USA",
    "name": "Abigail Smith",
    "lat": 26.5569434,
    "lng": -82.0178468,
},
{
    "order_number": "48D25293DEFD4E",
    "address": "1632 SW 43rd St, Cape Coral, FL 33914, USA",
    "name": "Ella Harris",
    "lat": 26.5722319,
    "lng": -82.0090337,
},
{
    "order_number": "A52A146CA8974C",
    "address": "4718 SW 12th Pl, Cape Coral, FL 33914, USA",
    "name": "Michael Thomas",
    "lat": 26.5635848,
    "lng": -82.00094589999999,
},
{
    "order_number": "3BB101ED34D540",
    "address": "2154 SW 44th Terrace, Cape Coral, FL 33914, USA",
    "name": "Ryan Rodriguez",
    "lat": 26.5683002,
    "lng": -82.01944639999999,
},
{
    "order_number": "90E49EFA2B7A4B",
    "address": "2224 SW 31st Ln, Cape Coral, FL 33914, USA",
    "name": "Ava Thompson",
    "lat": 26.5936563,
    "lng": -82.019576,
},
{
    "order_number": "E1B18E9BB0924B",
    "address": "1014 SE 20th St, Cape Coral, FL 33990, USA",
    "name": "Mia Martin",
    "lat": 26.6148991,
    "lng": -81.9518654,
},
{
    "order_number": "0A5545B0A3784B",
    "address": "2324 SW 20th St, Cape Coral, FL 33991, USA",
    "name": "Daniel Williams",
},
{
    "order_number": "C938BCDC05BB49",
    "address": "920 SW 4th Pl, Cape Coral, FL 33991, USA",
    "name": "Chloe Rodriguez",
    "lat": 26.6337642,
    "lng": -81.9823049,
},
{
    "order_number": "CBE83ADF348040",
    "address": "1145 SW 44th St, Cape Coral, FL 33914, USA",
    "name": "Emily Harris",
    "lat": 26.5699504,
    "lng": -81.9997492,
},
{
    "order_number": "3A6E777FA9F04F",
    "address": "1119 SW 15th Pl, Cape Coral, FL 33991, USA",
    "name": "Andrew Jackson",
    "lat": 26.6297832,
    "lng": -82.0058532,
},
{
    "order_number": "2224E29C8FB341",
    "address": "901 SW 12th Ave, Cape Coral, FL 33991, USA",
    "name": "Andrew Garcia",
    "lat": 26.6333592,
    "lng": -82.000469,
},
{
    "order_number": "314FBC8692EF44",
    "address": "4011 Palm Tree Blvd, Cape Coral, FL 33904, USA",
    "name": "Ella Jackson",
    "lat": 26.5776618,
    "lng": -81.9617709,
},
{
    "order_number": "3148AB8168CB4E",
    "address": "2114 SW 17th Ave, Cape Coral, FL 33991, USA",
    "name": "Mia Johnson",
    "lat": 26.6126739,
    "lng": -82.009779,
},
{
    "order_number": "0632D387E8FD4D",
    "address": "2503 Aviation Pkwy, Cape Coral, FL 33904, USA",
    "name": "Emily Jackson",
    "lat": 26.6059112,
    "lng": -81.96533529999999,
},
{
    "order_number": "22ACCBA9826D42",
    "address": "4105 SW 5th Pl, Cape Coral, FL 33914, USA",
    "name": "Ava Martinez",
    "lat": 26.5759173,
    "lng": -81.98583649999999,
},
{
    "order_number": "22DB66A7AA7E4F",
    "address": "1202 SW 18th Terrace, Cape Coral, FL 33991, USA",
    "name": "Anthony Hernandez",
    "lat": 26.618187,
    "lng": -82.0006264,
},
{
    "order_number": "C07980D3DF9342",
    "address": "133 SW 49th Terrace, Cape Coral, FL 33914, USA",
    "name": "Emma Garcia",
    "lat": 26.5602466,
    "lng": -81.97614449999999,
},
{
    "order_number": "5F7995427F144D",
    "address": "2124 SW 19th Ave, Cape Coral, FL 33991, USA",
    "name": "Grace Johnson",
    "lat": 26.61262,
    "lng": -82.013578,
},
{
    "order_number": "AB8A7A8F6B8740",
    "address": "1000 SW 37th St, Cape Coral, FL 33914, USA",
    "name": "Anthony Robinson",
    "lat": 26.5833399,
    "lng": -81.99584589999999,
},
{
    "order_number": "DC09D3C284DA42",
    "address": "1313 SW 19th Ln, Cape Coral, FL 33991, USA",
    "name": "Madison Davis",
    "lat": 26.6162441,
    "lng": -82.00311719999999,
},
{
    "order_number": "09672CE81E0143",
    "address": "923 SE 21st Ln, Cape Coral, FL 33990, USA",
    "name": "David Smith",
    "lat": 26.6122155,
    "lng": -81.95479209999999,
},
{
    "order_number": "4D9D569DD73849",
    "address": "1725 SW 22nd St, Cape Coral, FL 33991, USA",
    "name": "Chloe Moore",
    "lat": 26.6116896,
    "lng": -82.0111763,
},
{
    "order_number": "A7F003A295104A",
    "address": "4210 Palm Tree Blvd, Cape Coral, FL 33904, USA",
    "name": "Isabella Clark",
    "lat": 26.5737282,
    "lng": -81.9669011,
},
{
    "order_number": "3243F76C1BB54C",
    "address": "1931 SW 17th Pl, Cape Coral, FL 33991, USA",
    "name": "Sophia Garcia",
    "lat": 26.6154698,
    "lng": -82.0104735,
},
{
    "order_number": "567AC25B576049",
    "address": "3610 SE 1st Pl, Cape Coral, FL 33904, USA",
    "name": "Andrew Martinez",
    "lat": 26.5852724,
    "lng": -81.9712614,
},
{
    "order_number": "0D2EFCADE7124C",
    "address": "3300 Chiquita Blvd S, Cape Coral, FL 33914, USA",
    "name": "Ethan Brown",
    "lat": 26.5916769,
    "lng": -82.0074739,
},
{
    "order_number": "5EE568F1BF724A",
    "address": "4134 Oasis Blvd, Cape Coral, FL 33914, USA",
    "name": "Olivia Taylor",
    "lat": 26.5737028,
    "lng": -82.0244854,
},
{
    "order_number": "82D0E0F72DE34D",
    "address": "3814 SE 12th Pl, Cape Coral, FL 33904, USA",
    "name": "Madison Miller",
    "lat": 26.5804274,
    "lng": -81.9485263,
},
{
    "order_number": "02F6D8EF485C47",
    "address": "1801 SW 12th Ct, Cape Coral, FL 33991, USA",
    "name": "Madison Anderson",
    "lat": 26.6193184,
    "lng": -82.0002275,
},
{
    "order_number": "107A632D9BEF4D",
    "address": "1109 SW 27th St, Cape Coral, FL 33914, USA",
    "name": "Lily Smith",
    "lat": 26.6029969,
    "lng": -81.99749100000001,
},
{
    "order_number": "27CF3DFE98B44B",
    "address": "1904 SW 45th St, Cape Coral, FL 33914, USA",
    "name": "Sophia Jackson",
    "lat": 26.567397,
    "lng": -82.0132756,
},
{
    "order_number": "24EFB6E1BF4440",
    "address": "4220 SW 7th Pl, Cape Coral, FL 33914, USA",
    "name": "Ethan Clark",
    "lat": 26.5723854,
    "lng": -81.98988630000001,
},
{
    "order_number": "2DD6A8FC2CF149",
    "address": "1304 SW 22nd Pl, Cape Coral, FL 33991, USA",
    "name": "Grace White",
    "lat": 26.6278567,
    "lng": -82.01917929999999,
},
{
    "order_number": "F034DF0C83104F",
    "address": "134 SE 43rd Terrace, Cape Coral, FL 33904, USA",
    "name": "Isabella Johnson",
},
{
    "order_number": "C50C35D0897A42",
    "address": "115 SE 21st Terrace, Cape Coral, FL 33990, USA",
    "name": "Nathan Clark",
    "lat": 26.6133102,
    "lng": -81.9729759,
},
{
    "order_number": "DEC69AF9BDEF4C",
    "address": "1203 SW Santa Barbara Pl, Cape Coral, FL 33991, USA",
    "name": "Mia Wilson",
},
{
    "order_number": "36C34735EA5148",
    "address": "2327 Trafalgar Pkwy, Cape Coral, FL 33991, USA",
    "name": "Mia Anderson",
    "lat": 26.6240253,
    "lng": -82.0224144,
},
{
    "order_number": "B95B18E728044C",
    "address": "3413 SE 10th Pl, Cape Coral, FL 33904, USA",
    "name": "Olivia Martinez",
    "lat": 26.5882713,
    "lng": -81.9527054,
},
{
    "order_number": "97A3ACD7FB854E",
    "address": "424 SW 52nd St, Cape Coral, FL 33914, USA",
    "name": "Matthew Wilson",
},
{
    "order_number": "C662BB22E4954D",
    "address": "4724 SW 25th Pl, Cape Coral, FL 33914, USA",
    "name": "Matthew Davis",
},
{
    "order_number": "E29BD155401A42",
    "address": "3609 SE 9th Pl, Cape Coral, FL 33904, USA",
    "name": "Nathan Moore",
    "lat": 26.5848162,
    "lng": -81.95522629999999,
},
{
    "order_number": "49327008AF564B",
    "address": "1810 SW 22nd Terrace, Cape Coral, FL 33991, USA",
    "name": "Mia Davis",
    "lat": 26.6103465,
    "lng": -82.01227759999999,
},
]
