{
  "intl_delivery": [
    {
      "order_number": "C2B03FA6C6874D",
      "address": "350 N June St, Los Angeles, CA 90004, USA",
      "name": "Chloe Harris",
      "lat": 34.0776644,
      "lng": -118.3338613
    },
    {
      "order_number": "CD2D7B85F4DB4F",
      "address": "400 N Martel Ave, Los Angeles, CA 90036, USA",
      "name": "Matthew Miller",
      "lat": 34.078428,
      "lng": -118.3508062
    },
    {
      "order_number": "8E9B0DF77EF641",
      "address": "402 N Gower St, Los Angeles, CA 90004, USA",
      "name": "Olivia Martin",
      "lat": 34.0777022,
      "lng": -118.3224516
    },
    {
      "order_number": "5AED39E83A2446",
      "address": "4942 Rosewood Ave, Los Angeles, CA 90004, USA",
      "name": "Michael Hernandez",
      "lat": 34.0790106,
      "lng": -118.312848
    },
    {
      "order_number": "4B6B8620677145",
      "address": "6004 Carlton Way, Los Angeles, CA 90028, USA",
      "name": "David Robinson",
      "lat": 34.1002452,
      "lng": -118.3203314
    },
    {
      "order_number": "1AEC8B89351D4A",
      "address": "1525 N Van Ness Ave, Los Angeles, CA 90028, USA",
      "name": "Chloe Clark",
      "lat": 34.0989505,
      "lng": -118.3160689
    },
    {
      "order_number": "7A6E7CC8FD254F",
      "address": "1721 N Sycamore Ave, Los Angeles, CA 90028, USA",
      "name": "Daniel Jackson",
      "lat": 34.1022965,
      "lng": -118.3436761
    },
    {
      "order_number": "CF9C2C90D7624D",
      "address": "7276 Clinton St, Los Angeles, CA 90036, USA",
      "name": "Emily Anderson",
      "lat": 34.0816677,
      "lng": -118.3482172
    },
    {
      "order_number": "1A1341A0D7A648",
      "address": "930 Lillian Way, Los Angeles, CA 90038, USA",
      "name": "Grace Davis",
      "lat": 34.08804,
      "lng": -118.32759
    },
    {
      "order_number": "EB423153BAE949",
      "address": "5937 Colgate Ave, Los Angeles, CA 90036, USA",
      "name": "Sophia Wilson",
      "lat": 34.0694171,
      "lng": -118.3524712
    },
    {
      "order_number": "E9DB977773B640",
      "address": "1471 Vine St, Los Angeles, CA 90028, USA",
      "name": "Madison Martinez",
      "lat": 34.0974147,
      "lng": -118.3268905
    },
    {
      "order_number": "38A5067F74454B",
      "address": "1020 N Vista St, West Hollywood, CA 90046, USA",
      "name": "Emma Garcia",
      "lat": 34.0892548,
      "lng": -118.3519336
    },
    {
      "order_number": "E22B70862ED548",
      "address": "402 N Larchmont Blvd, Los Angeles, CA 90004, USA",
      "name": "Ella Martin",
      "lat": 34.0777008,
      "lng": -118.3233474
    },
    {
      "order_number": "991B06A8E05A4A",
      "address": "1230 Tamarind Ave, Los Angeles, CA 90038, USA",
      "name": "Emma Jones",
      "lat": 34.09352,
      "lng": -118.3189
    },
    {
      "order_number": "11855434C16E47",
      "address": "1138 Beachwood Dr, Los Angeles, CA 90038, USA",
      "name": "Ava Johnson",
      "lat": 34.0919646,
      "lng": -118.3210196
    },
    {
      "order_number": "9597647758EC40",
      "address": "239 S Wilton Pl, Los Angeles, CA 90004, USA",
      "name": "Jacob Davis",
      "lat": 34.0699881,
      "lng": -118.3145993
    },
    {
      "order_number": "3A0A5AC2E53B4F",
      "address": "173 N Alta Vista Blvd, Los Angeles, CA 90036, USA",
      "name": "Jacob Rodriguez",
      "lat": 34.0756276,
      "lng": -118.3479012
    },
    {
      "order_number": "89802FA26EC74A",
      "address": "5741 Carlton Way, Los Angeles, CA 90028, USA",
      "name": "Daniel Thomas",
      "lat": 34.1007273,
      "lng": -118.3151173
    },
    {
      "order_number": "B25A600D4F2B4C",
      "address": "1351 N Alta Vista Blvd, Los Angeles, CA 90046, USA",
      "name": "Lily Miller",
      "lat": 34.0956491,
      "lng": -118.3474752
    },
    {
      "order_number": "437F53DFC04A40",
      "address": "6146 Eleanor Ave, Los Angeles, CA 90038, USA",
      "name": "Emily Harris",
      "lat": 34.0895869,
      "lng": -118.3261331
    },
    {
      "order_number": "E2AD1E1B7CC041",
      "address": "La Brea / 2nd, Los Angeles, CA 90036, USA",
      "name": "Olivia Thompson",
      "lat": 34.071251,
      "lng": -118.344177
    },
    {
      "order_number": "EC217BEB658740",
      "address": "1326 N Las Palmas Ave, Los Angeles, CA 90028, USA",
      "name": "Tyler Jones",
      "lat": 34.0952094,
      "lng": -118.3360502
    },
    {
      "order_number": "3C8C60A6B04145",
      "address": "6011 Eleanor Ave, Los Angeles, CA 90038, USA",
      "name": "Tyler Wilson",
      "lat": 34.08995,
      "lng": -118.32271
    },
    {
      "order_number": "051AB1DD926942",
      "address": "1223 N Gower St, Los Angeles, CA 90038, USA",
      "name": "Ava Wilson",
      "lat": 34.0933362,
      "lng": -118.3225234
    },
    {
      "order_number": "C48C9DCED89249",
      "address": "1018 Seward St, Los Angeles, CA 90038, USA",
      "name": "Ethan Brown",
      "lat": 34.08955,
      "lng": -118.33305
    },
    {
      "order_number": "6983B6AA229147",
      "address": "926 N Formosa Ave, Los Angeles, CA 90046, USA",
      "name": "Jacob Thomas",
      "lat": 34.08787,
      "lng": -118.3461
    },
    {
      "order_number": "E30CDDC89D5849",
      "address": "6138 Fountain Ave, Los Angeles, CA 90028, USA",
      "name": "Madison Thompson",
      "lat": 34.0942604,
      "lng": -118.323698
    },
    {
      "order_number": "DE4122D6827342",
      "address": "1753 Orchid Ave, Hollywood, CA 90028, USA",
      "name": "Grace Wilson",
      "lat": 34.1031456,
      "lng": -118.3406383
    },
    {
      "order_number": "E2D5F47DF4994C",
      "address": "900 N Gower St, Los Angeles, CA 90038, USA",
      "name": "Nathan White",
      "lat": 34.0871909,
      "lng": -118.3220799
    },
    {
      "order_number": "929731FAB1364E",
      "address": "165 N Sycamore Ave, Los Angeles, CA 90036, USA",
      "name": "Tyler Martin",
      "lat": 34.0754438,
      "lng": -118.3431208
    },
    {
      "order_number": "5A369E9AC88C4F",
      "address": "300 N La Brea Ave, Los Angeles, CA 90036, USA",
      "name": "David Anderson",
      "lat": 34.0763937,
      "lng": -118.3435917
    },
    {
      "order_number": "94A11F09F7F84B",
      "address": "6479 Lexington Ave, Los Angeles, CA 90038, USA",
      "name": "Ethan Smith",
      "lat": 34.0926925,
      "lng": -118.3315491
    },
    {
      "order_number": "C5107F167FB74E",
      "address": "1503 Vine St, Los Angeles, CA 90028, USA",
      "name": "Olivia Jackson",
      "lat": 34.0984048,
      "lng": -118.3269551
    },
    {
      "order_number": "68124669C5314F",
      "address": "444 N June St, Los Angeles, CA 90004, USA",
      "name": "Lily Martin",
      "lat": 34.0795857,
      "lng": -118.3337973
    },
    {
      "order_number": "40E6E0CC9B5845",
      "address": "229 Beachwood Dr, Los Angeles, CA 90004, USA",
      "name": "Jacob Harris",
      "lat": 34.0754311,
      "lng": -118.3219158
    },
    {
      "order_number": "23B7AD574F9345",
      "address": "1715 N Gower St, Los Angeles, CA 90028, USA",
      "name": "Joshua Martinez",
      "lat": 34.1022129,
      "lng": -118.3225821
    },
    {
      "order_number": "E608DE2FD57642",
      "address": "164 S Wilton Pl, Los Angeles, CA 90004, USA",
      "name": "Michael White",
      "lat": 34.0714125,
      "lng": -118.3138714
    },
    {
      "order_number": "CD66D77587694A",
      "address": "812 N La Brea Ave, Los Angeles, CA 90038, USA",
      "name": "Jacob Rodriguez",
      "lat": 34.0856585,
      "lng": -118.3438891
    },
    {
      "order_number": "E97162E072D449",
      "address": "502n N June St, Los Angeles, CA 90004, USA",
      "name": "Ethan Jones",
      "lat": 34.0804988,
      "lng": -118.3339435
    },
    {
      "order_number": "1CE683616AAF4C",
      "address": "121 S Manhattan Pl, Los Angeles, CA 90004, USA",
      "name": "Anthony Garcia",
      "lat": 34.0724331,
      "lng": -118.3105743
    },
    {
      "order_number": "696F08ED652D4C",
      "address": "335 N McCadden Pl, Los Angeles, CA 90004, USA",
      "name": "Joshua Rodriguez",
      "lat": 34.0773636,
      "lng": -118.3374981
    },
    {
      "order_number": "6030CC5C50A647",
      "address": "336N N McCadden Pl, Los Angeles, CA 90004, USA",
      "name": "Tyler Wilson",
      "lat": 34.0773453,
      "lng": -118.3368742
    },
    {
      "order_number": "65AB952B48DD4A",
      "address": "5918 Barton Ave, Los Angeles, CA 90038, USA",
      "name": "Ryan Williams",
      "lat": 34.0878646,
      "lng": -118.322912
    },
    {
      "order_number": "B11B650FA64442",
      "address": "Santa Monica / La Brea, West Hollywood, CA 90046, USA",
      "name": "Ava Martin",
      "lat": 34.0906036,
      "lng": -118.3443865
    },
    {
      "order_number": "8518A92E3F1E42",
      "address": "1122 N Detroit St, West Hollywood, CA 90046, USA",
      "name": "Isabella Hernandez",
      "lat": 34.0912806,
      "lng": -118.3447067
    },
    {
      "order_number": "AADE87BA2BC845",
      "address": "1348 N Sycamore Ave, Los Angeles, CA 90028, USA",
      "name": "Sophia Anderson",
      "lat": 34.0958224,
      "lng": -118.3426221
    },
    {
      "order_number": "ED9B5864A54242",
      "address": "7268 Franklin Ave, Los Angeles, CA 90046, USA",
      "name": "Emma Martin",
      "lat": 34.10325,
      "lng": -118.34784
    },
    {
      "order_number": "1EB98F5EA57944",
      "address": "6719 Santa Monica Blvd, Los Angeles, CA 90038, USA",
      "name": "Jacob Martin",
      "lat": 34.09089,
      "lng": -118.33695
    },
    {
      "order_number": "5850EF6F6CB54D",
      "address": "461 N Mansfield Ave, Los Angeles, CA 90036, USA",
      "name": "Madison Johnson",
      "lat": 34.08010360000001,
      "lng": -118.3411001
    },
    {
      "order_number": "1BA0EABEE57747",
      "address": "1003 N Martel Ave, Los Angeles, CA 90046, USA",
      "name": "Anthony Wilson",
      "lat": 34.0888609,
      "lng": -118.3513024
    },
    {
      "order_number": "AA6AF02EBAB941",
      "address": "4919 Rosewood Ave, Los Angeles, CA 90004, USA",
      "name": "Daniel Thompson",
      "lat": 34.0795461,
      "lng": -118.3120627
    },
    {
      "order_number": "67868B7E3BD443",
      "address": "1423 N Martel Ave, Los Angeles, CA 90046, USA",
      "name": "Ethan Harris",
      "lat": 34.0966501,
      "lng": -118.3510062
    },
    {
      "order_number": "B8723BF3AE184F",
      "address": "145 N Rossmore Ave, Los Angeles, CA 90004, USA",
      "name": "Michael Martinez",
      "lat": 34.0743321,
      "lng": -118.3278128
    },
    {
      "order_number": "A62C48EF83E749",
      "address": "6210 Oakwood Ave, Los Angeles, CA 90004, USA",
      "name": "Ethan Williams",
      "lat": 34.0781295,
      "lng": -118.3349855
    },
    {
      "order_number": "10D08C2451B249",
      "address": "1134 N Sycamore Ave, Los Angeles, CA 90038, USA",
      "name": "Madison Smith",
      "lat": 34.091694,
      "lng": -118.3422226
    },
    {
      "order_number": "C7A5E84D94124F",
      "address": "200 S La Brea Ave, Los Angeles, CA 90036, USA",
      "name": "Mia Jones",
      "lat": 34.0707216,
      "lng": -118.3437302
    },
    {
      "order_number": "6BAC5BAB27524A",
      "address": "1715 Argyle Ave, Los Angeles, CA 90028, USA",
      "name": "Matthew Williams",
      "lat": 34.1021218,
      "lng": -118.3253512
    },
    {
      "order_number": "F6E755FA0A3C47",
      "address": "6432 Santa Monica Blvd, Los Angeles, CA 90038, USA",
      "name": "Mia Garcia",
      "lat": 34.0904532,
      "lng": -118.3301792
    },
    {
      "order_number": "2747B711BD534A",
      "address": "5529 Hollywood Blvd, Los Angeles, CA 90028, USA",
      "name": "Grace Garcia",
      "lat": 34.10188,
      "lng": -118.3102373
    },
    {
      "order_number": "D38EEA97B73441",
      "address": "5512 Fountain Ave, Los Angeles, CA 90038, USA",
      "name": "Ryan Robinson",
      "lat": 34.0947611,
      "lng": -118.3098874
    }
  ],
  "status": "OK"
}
