{
"intl_delivery" : [
{
    "order_number": "FEC4527E74F943",
    "address": "401 Broadway #2075, Seattle, WA 98122, USA",
    "name": "Andrew Garcia",
    "lat": 47.6055574,
    "lng": -122.3214308
},
{
    "order_number": "8FC40C9A26944B",
    "address": "E Madison St & 17th Ave, Seattle, WA 98122, USA",
    "name": "Emily Jones",
    "lat": 47.6155955,
    "lng": -122.3101617
},
{
    "order_number": "5CD58622047247",
    "address": "312 20th Ave, Seattle, WA 98122, USA",
    "name": "Mia Wilson",
    "lat": 47.6047826,
    "lng": -122.3060281
},
{
    "order_number": "93D73707B20140",
    "address": "1141 Broadway Ct, Seattle, WA 98122, USA",
    "name": "Abigail Moore",
    "lat": 47.6125712,
    "lng": -122.3199697
},
{
    "order_number": "59B3C4367A184F",
    "address": "1156 E Jefferson St, Seattle, WA 98122, USA",
    "name": "Olivia Taylor",
    "lat": 47.6063433,
    "lng": -122.3169963
},
{
    "order_number": "11DDB493459646",
    "address": "1001 Minor Ave, Seattle, WA 98104, USA",
    "name": "Ethan Thomas",
    "lat": 47.6099271,
    "lng": -122.3244225
},
{
    "order_number": "345F6258E4D344",
    "address": "700 Broadway, Seattle, WA 98122, USA",
    "name": "Sophia Davis",
    "lat": 47.6083276,
    "lng": -122.3203637
},
{
    "order_number": "DC8C3F55BA3448",
    "address": "1816 14th Ave, Seattle, WA 98122, USA",
    "name": "Anthony Smith",
    "lat": 47.6182039,
    "lng": -122.3137988
},
{
    "order_number": "136C309FAEDD4F",
    "address": "T.T. Minor Playground, 1698 E Union St, Seattle, WA 98122, USA",
    "name": "Andrew Moore",
    "lat": 47.6133732,
    "lng": -122.3103426
},
{
    "order_number": "9559BFAA496C4B",
    "address": "1025 Terrace St, Seattle, WA 98104, USA",
    "name": "Sophia Taylor",
    "lat": 47.6044517,
    "lng": -122.3217144
},
{
    "order_number": "D782242E80994A",
    "address": "523 E Denny Way, Seattle, WA 98122, USA",
    "name": "Mia Rodriguez",
    "lat": 47.6182732,
    "lng": -122.3241852
},
{
    "order_number": "8D1EA56067C043",
    "address": "550 14th Ave, Seattle, WA 98122, USA",
    "name": "Ryan Robinson",
    "lat": 47.6068486,
    "lng": -122.3139686
},
{
    "order_number": "695EA8DCA8E647",
    "address": "1600 E Madison St, Seattle, WA 98122, USA",
    "name": "Olivia Smith",
    "lat": 47.61534349999999,
    "lng": -122.3111959
},
{
    "order_number": "28BEB5B333CA46",
    "address": "909 Jefferson St, Seattle, WA 98104, USA",
    "name": "Mia Harris",
    "lat": 47.6053536,
    "lng": -122.3243256
},
{
    "order_number": "9960BF204E0C4D",
    "address": "336 15th Ave, Seattle, WA 98122, USA",
    "name": "Lily Robinson",
    "lat": 47.605405,
    "lng": -122.3125802
},
{
    "order_number": "46F1D70620704B",
    "address": "1592 18th Ave, Seattle, WA 98122, USA",
    "name": "Ava Thompson",
    "lat": 47.6154885,
    "lng": -122.3086417
},
{
    "order_number": "F41216D0CE0644",
    "address": "1720 E Olive St, Seattle, WA 98122, USA",
    "name": "Isabella Martinez",
    "lat": 47.6166162,
    "lng": -122.309374
},
{
    "order_number": "9F19EAB40DCD4A",
    "address": "428 E Denny Way, Seattle, WA 98122, USA",
    "name": "Emily Williams",
    "lat": 47.6185926,
    "lng": -122.3258067
},
{
    "order_number": "9FBFA723154A4F",
    "address": "303 Terry Ave, Seattle, WA 98104, USA",
    "name": "Madison Johnson",
    "lat": 47.6039566,
    "lng": -122.3222107
},
{
    "order_number": "BCE1E72956194B",
    "address": "1717C 14th Ave, Seattle, WA 98122, USA",
    "name": "Joshua Thomas",
    "lat": 47.61701,
    "lng": -122.3144944
},
{
    "order_number": "B8493AAFBD5C42",
    "address": "Thinking Field, 901 12th Ave, Seattle, WA 98122, USA",
    "name": "Mia Williams",
    "lat": 47.6107278,
    "lng": -122.3179423
},
{
    "order_number": "7959402C9DFA4C",
    "address": "808 9th Ave, Seattle, WA 98104, USA",
    "name": "Madison Robinson",
    "lat": 47.6073033,
    "lng": -122.3258505
},
{
    "order_number": "B413196125454B",
    "address": "803 20th Ave, Seattle, WA 98122, USA",
    "name": "Ava Moore",
    "lat": 47.6093633,
    "lng": -122.306625
},
{
    "order_number": "FC22AE8549064A",
    "address": "1313 E Columbia St, Seattle, WA 98122, USA",
    "name": "Ella Davis",
    "lat": 47.608947,
    "lng": -122.3146042
},
{
    "order_number": "B50361913E1F43",
    "address": "1000 E James Way, Seattle, WA 98122, USA",
    "name": "Emily Garcia",
    "lat": 47.6085135,
    "lng": -122.3182709
},
{
    "order_number": "7F5810D26C544E",
    "address": "901 Boren Ave #1520, Seattle, WA 98104, USA",
    "name": "Madison Jackson",
    "lat": 47.6088216,
    "lng": -122.3248988
},
{
    "order_number": "B9545EB0930D47",
    "address": "972 20th Ave, Seattle, WA 98122, USA",
    "name": "Ava Miller",
    "lat": 47.6121127,
    "lng": -122.3060114
},
{
    "order_number": "19DCEA07B1D948",
    "address": "1661 Nagle Pl, Seattle, WA 98122, USA",
    "name": "Nathan Thomas",
    "lat": 47.6162109,
    "lng": -122.3198593
},
{
    "order_number": "561400D2C6B44B",
    "address": "1524 E Olive Wy, Seattle, WA 98122, USA",
    "name": "Chloe Martinez",
    "lat": 47.6183685,
    "lng": -122.3260405
},
{
    "order_number": "06E77CC2DC8745",
    "address": "318 14th Ave, Seattle, WA 98122, USA",
    "name": "Tyler Taylor",
    "lat": 47.6048666,
    "lng": -122.3138944
},
{
    "order_number": "3BA592AA870540",
    "address": "1221 Madison St Floor 6, Seattle, WA 98104, USA",
    "name": "Anthony Williams",
    "lat": 47.609767,
    "lng": -122.3229256
},
{
    "order_number": "DC1976C55D9044",
    "address": "520 Broadway, Seattle, WA 98122, USA",
    "name": "Mia Martin",
    "lat": 47.60687619999999,
    "lng": -122.320346
},
{
    "order_number": "5D6748B7ED8E4F",
    "address": "923 E Madison St, Seattle, WA 98122, USA",
    "name": "Emily Rodriguez",
    "lat": 47.6111469,
    "lng": -122.3196503
},
{
    "order_number": "694C80E1BE9A4E",
    "address": "525 Boren Ave, Seattle, WA 98104, USA",
    "name": "Tyler Johnson",
    "lat": 47.6061111,
    "lng": -122.3226539
},
{
    "order_number": "D2C5E27D5EB14C",
    "address": "1424 E Pine St, Seattle, WA 98122, USA",
    "name": "Abigail Hernandez",
    "lat": 47.6154251,
    "lng": -122.3129794
},
{
    "order_number": "FDB255EFFC6044",
    "address": "1114 13th Ave, Seattle, WA 98122, USA",
    "name": "Joshua Jones",
    "lat": 47.6120793,
    "lng": -122.3151731
},
{
    "order_number": "A74095E4892E45",
    "address": "919 E Pine St, Seattle, WA 98122, USA",
    "name": "Lily Hernandez",
    "lat": 47.6151341,
    "lng": -122.3197239
},
{
    "order_number": "3626EAF437C643",
    "address": "1610 18th Ave, Seattle, WA 98122, USA",
    "name": "Tyler Jackson",
    "lat": 47.6157338,
    "lng": -122.3085467
},
{
    "order_number": "A02B171E89794C",
    "address": "928 12th Ave, Seattle, WA 98122, USA",
    "name": "Abigail Taylor",
    "lat": 47.6112523,
    "lng": -122.3166099
},
{
    "order_number": "924C6BDFF18C4A",
    "address": "Japanese Tea Garden, 11th Ave, Seattle, WA 98122, USA",
    "name": "Ella Miller",
    "lat": 47.60702389999999,
    "lng": -122.319195
},
{
    "order_number": "ECD510E7FE1F44",
    "address": "1605 12th Ave #1, Seattle, WA 98122, USA",
    "name": "Ryan Thomas",
    "lat": 47.6156731,
    "lng": -122.3172855
},
{
    "order_number": "8CA7B83F4DFB4B",
    "address": "1732 18th Ave, Seattle, WA 98122, USA",
    "name": "Ethan Johnson",
    "lat": 47.6174415,
    "lng": -122.3085854
},
{
    "order_number": "680E03102D0249",
    "address": "1712 Belmont Ave, Seattle, WA 98122, USA",
    "name": "Isabella Robinson",
    "lat": 47.6167679,
    "lng": -122.3242079
},
{
    "order_number": "5BC141AD70F641",
    "address": "1824 13th Ave, Seattle, WA 98122, USA",
    "name": "Ryan Williams",
    "lat": 47.61833499999999,
    "lng": -122.3152201
},
{
    "order_number": "8C52C045443945",
    "address": "1122 13th Ave, Seattle, WA 98122, USA",
    "name": "Ethan Thompson",
    "lat": 47.6122559,
    "lng": -122.3150542
},
{
    "order_number": "A10133D2CBEB44",
    "address": "601 E Pike St Unit 100, Seattle, WA 98122, USA",
    "name": "Matthew Jones",
    "lat": 47.613919,
    "lng": -122.3241441
},
{
    "order_number": "10D74A389ACA49",
    "address": "1640 20th Ave, Seattle, WA 98122, USA",
    "name": "Ryan Jones",
    "lat": 47.6164798,
    "lng": -122.3056396
},
{
    "order_number": "AA5376494D0F48",
    "address": "1726 15th Ave, Seattle, WA 98122, USA",
    "name": "Tyler Davis",
    "lat": 47.61728369999999,
    "lng": -122.3123912
},
{
    "order_number": "278BA4E5577B41",
    "address": "559 19th Ave, Seattle, WA 98122, USA",
    "name": "Sophia Moore",
    "lat": 47.6078603,
    "lng": -122.3079366
},
{
    "order_number": "F003AAA4994B43",
    "address": "980 Jefferson St, Seattle, WA 98104, USA",
    "name": "Madison Smith",
    "lat": 47.6055053,
    "lng": -122.323363
}
],
"status" : "OK"
}
